{"type": "FeatureCollection", "features": [{"id": 26, "type": "Feature", "geometry": {"type": "Point", "coordinates": [-78.79479398, 38.60557075]}, "properties": {"name": "Broadway", "size": 3, "region": "Region C", "district": "Valley"}}, {"id": 28, "type": "Feature", "geometry": {"type": "Point", "coordinates": [-79.23535275, 37.3461137]}, "properties": {"name": "Brookville", "size": 3, "region": "Region C", "district": "Seminole"}}, {"id": 47, "type": "Feature", "geometry": {"type": "Point", "coordinates": [-78.47531707, 38.05291129]}, "properties": {"name": "Charlottesville", "size": 3, "region": "Region C", "district": "Jefferson"}}, {"id": 84, "type": "Feature", "geometry": {"type": "Point", "coordinates": [-78.29823744, 37.87190208]}, "properties": {"name": "Fluvanna County", "size": 3, "region": "Region C", "district": "Jefferson"}}, {"id": 87, "type": "Feature", "geometry": {"type": "Point", "coordinates": [-78.97434468, 38.24708129]}, "properties": {"name": "Fort Defiance", "size": 3, "region": "Region C", "district": "Shenandoah"}}, {"id": 125, "type": "Feature", "geometry": {"type": "Point", "coordinates": [-79.20679176, 37.36368535]}, "properties": {"name": "Heritage (Lynchburg)", "size": 3, "region": "Region C", "district": "Seminole"}}, {"id": 175, "type": "Feature", "geometry": {"type": "Point", "coordinates": [-79.49809731, 37.37163084]}, "properties": {"name": "Liberty (Bedford)", "size": 3, "region": "Region C", "district": "Seminole"}}, {"id": 176, "type": "Feature", "geometry": {"type": "Point", "coordinates": [-79.17206999, 37.36042762]}, "properties": {"name": "Liberty Christian Academy", "size": 3, "region": "Region C", "district": "Seminole"}}, {"id": 203, "type": "Feature", "geometry": {"type": "Point", "coordinates": [-78.48932616, 37.99884673]}, "properties": {"name": "Monticello", "size": 3, "region": "Region C", "district": "Jefferson"}}, {"id": 253, "type": "Feature", "geometry": {"type": "Point", "coordinates": [-79.42213593, 37.8018904]}, "properties": {"name": "Rockbridge County", "size": 3, "region": "Region C", "district": "Valley"}}, {"id": 255, "type": "Feature", "geometry": {"type": "Point", "coordinates": [-79.08502666, 37.27659969]}, "properties": {"name": "Rustburg", "size": 3, "region": "Region C", "district": "Seminole"}}, {"id": 265, "type": "Feature", "geometry": {"type": "Point", "coordinates": [-78.76310224, 38.37530828]}, "properties": {"name": "Spotswood", "size": 3, "region": "Region C", "district": "Valley"}}, {"id": 286, "type": "Feature", "geometry": {"type": "Point", "coordinates": [-78.95605727, 38.39491127]}, "properties": {"name": "Turner Ashby", "size": 3, "region": "Region C", "district": "Valley"}}, {"id": 301, "type": "Feature", "geometry": {"type": "Point", "coordinates": [-78.8977953, 38.07074519]}, "properties": {"name": "Waynesboro", "size": 3, "region": "Region C", "district": "Valley"}}, {"id": 305, "type": "Feature", "geometry": {"type": "Point", "coordinates": [-78.70718445, 38.04729354]}, "properties": {"name": "Western Albemarle", "size": 3, "region": "Region C", "district": "Jefferson"}}, {"id": 312, "type": "Feature", "geometry": {"type": "Point", "coordinates": [-78.98537805, 38.12123541]}, "properties": {"name": "Wilson Memorial", "size": 3, "region": "Region C", "district": "Shenandoah"}}]}
