{"type":"FeatureCollection","features":[{"type":"Feature","properties":{"size":"2","name":"Clarke County","region":"B"},"geometry":{"type":"Point","coordinates":[-77.99422599,39.16172995]}},{"type":"Feature","properties":{"size":"2","name":"East Rockingham","region":"B"},"geometry":{"type":"Point","coordinates":[-78.65421908,38.39951571]}},{"type":"Feature","properties":{"size":"2","name":"Luray","region":"B"},"geometry":{"type":"Point","coordinates":[-78.48553569,38.65451477]}},{"type":"Feature","properties":{"size":"2","name":"Madison County","region":"B"},"geometry":{"type":"Point","coordinates":[-78.26853326,38.3651389]}},{"type":"Feature","properties":{"size":"2","name":"Page County","region":"B"},"geometry":{"type":"Point","coordinates":[-78.610209,38.56356866]}},{"type":"Feature","properties":{"size":"1","name":"Rappahannock County","region":"B"},"geometry":{"type":"Point","coordinates":[-78.18767806,38.68668528]}},{"type":"Feature","properties":{"size":"2","name":"Mountain View (Stonewall Jackson)","region":"B"},"geometry":{"type":"Point","coordinates":[-78.66370048,38.70380007]}},{"type":"Feature","properties":{"size":"2","name":"Strasburg","region":"B"},"geometry":{"type":"Point","coordinates":[-78.36270712,38.98465656]}}]}