{"type":"FeatureCollection","features":[{"type":"Feature","properties":{"size":"1","name":"Altavista","region":"B"},"geometry":{"type":"Point","coordinates":[-79.29608408,37.10926577]}},{"type":"Feature","properties":{"size":"2","name":"Appomattox","region":"C"},"geometry":{"type":"Point","coordinates":[-78.82611416,37.34543957]}},{"type":"Feature","properties":{"size":"2","name":"Chatham","region":"C"},"geometry":{"type":"Point","coordinates":[-79.40231567,36.78756767]}},{"type":"Feature","properties":{"size":"2","name":"Dan River","region":"C"},"geometry":{"type":"Point","coordinates":[-79.30011355,36.66182949]}},{"type":"Feature","properties":{"size":"1","name":"Galileo Magnet","region":"B"},"geometry":{"type":"Point","coordinates":[-79.39318074,36.58392566]}},{"type":"Feature","properties":{"size":"2","name":"Gretna","region":"C"},"geometry":{"type":"Point","coordinates":[-79.36875363,36.94567814]}},{"type":"Feature","properties":{"size":"2","name":"Nelson County","region":"C"},"geometry":{"type":"Point","coordinates":[-78.89549879,37.7328428]}},{"type":"Feature","properties":{"size":"1","name":"William Campbell","region":"B"},"geometry":{"type":"Point","coordinates":[-79.00671594,37.11344129]}}]}