{"type":"FeatureCollection","features":[{"type":"Feature","properties":{"size":"5","name":"Clover Hill","region":"B"},"geometry":{"type":"Point","coordinates":[-77.64070587,37.4486458]}},{"type":"Feature","properties":{"size":"6","name":"Cosby","region":"A"},"geometry":{"type":"Point","coordinates":[-77.70228405,37.40586278]}},{"type":"Feature","properties":{"size":"4","name":"George Wythe (Richmond)","region":"B"},"geometry":{"type":"Point","coordinates":[-77.48311552,37.51072024]}},{"type":"Feature","properties":{"size":"4","name":"Huguenot","region":"B"},"geometry":{"type":"Point","coordinates":[-77.54131349,37.53222255]}},{"type":"Feature","properties":{"size":"6","name":"James River (Midlothian)","region":"A"},"geometry":{"type":"Point","coordinates":[-77.64982851,37.55289785]}},{"type":"Feature","properties":{"size":"5","name":"L.C. Bird","region":"B"},"geometry":{"type":"Point","coordinates":[-77.4946109,37.38842597]}},{"type":"Feature","properties":{"size":"5","name":"Manchester","region":"B"},"geometry":{"type":"Point","coordinates":[-77.62317168,37.40745978]}},{"type":"Feature","properties":{"size":"5","name":"Midlothian","region":"B"},"geometry":{"type":"Point","coordinates":[-77.66068874,37.49612209]}},{"type":"Feature","properties":{"size":"4","name":"Monacan","region":"B"},"geometry":{"type":"Point","coordinates":[-77.61368311,37.47918485]}},{"type":"Feature","properties":{"size":"4","name":"Powhatan","region":"B"},"geometry":{"type":"Point","coordinates":[-77.80239975,37.5218552]}}]}