{"type":"FeatureCollection","features":[{"type":"Feature","properties":{"size":"2","name":"Graham","region":"D"},"geometry":{"type":"Point","coordinates":[-81.27062765,37.23799226]}},{"type":"Feature","properties":{"size":"2","name":"Lebanon","region":"D"},"geometry":{"type":"Point","coordinates":[-82.10940515,36.88856275]}},{"type":"Feature","properties":{"size":"2","name":"Marion Senior","region":"D"},"geometry":{"type":"Point","coordinates":[-81.50495431,36.83878091]}},{"type":"Feature","properties":{"size":"2","name":"Richlands","region":"D"},"geometry":{"type":"Point","coordinates":[-81.77750002,37.09343415]}},{"type":"Feature","properties":{"size":"2","name":"Tazewell","region":"D"},"geometry":{"type":"Point","coordinates":[-81.5053131,37.12476976]}},{"type":"Feature","properties":{"size":"2","name":"Virginia","region":"D"},"geometry":{"type":"Point","coordinates":[-82.17945171,36.61469506]}}]}