{"type": "FeatureCollection", "features": [{"id": 31, "type": "Feature", "geometry": {"type": "Point", "coordinates": [-78.51131191, 37.54103708]}, "properties": {"name": "Buckingham County", "size": 2, "region": "Region B", "district": "James River"}}, {"id": 32, "type": "Feature", "geometry": {"type": "Point", "coordinates": [-79.21872522, 38.19409716]}, "properties": {"name": "Buffalo Gap", "size": 2, "region": "Region B", "district": "Shenandoah"}}, {"id": 53, "type": "Feature", "geometry": {"type": "Point", "coordinates": [-77.99422599, 39.16172995]}, "properties": {"name": "Clarke County", "size": 2, "region": "Region B", "district": "Bull Run"}}, {"id": 73, "type": "Feature", "geometry": {"type": "Point", "coordinates": [-78.65421908, 38.39951571]}, "properties": {"name": "East Rockingham", "size": 2, "region": "Region B", "district": "Bull Run"}}, {"id": 182, "type": "Feature", "geometry": {"type": "Point", "coordinates": [-78.48553569, 38.65451477]}, "properties": {"name": "Luray", "size": 2, "region": "Region B", "district": "Bull Run"}}, {"id": 183, "type": "Feature", "geometry": {"type": "Point", "coordinates": [-78.26853326, 38.3651389]}, "properties": {"name": "Madison County", "size": 2, "region": "Region B", "district": "Bull Run"}}, {"id": 224, "type": "Feature", "geometry": {"type": "Point", "coordinates": [-78.610209, 38.56356866]}, "properties": {"name": "Page County", "size": 2, "region": "Region B", "district": "Bull Run"}}, {"id": 268, "type": "Feature", "geometry": {"type": "Point", "coordinates": [-79.05332371, 38.16530365]}, "properties": {"name": "Staunton", "size": 2, "region": "Region B", "district": "Shenandoah"}}, {"id": 271, "type": "Feature", "geometry": {"type": "Point", "coordinates": [-78.66370048, 38.70380007]}, "properties": {"name": "Mountain View (Stonewall Jackson)", "size": 2, "region": "Region B", "district": "Bull Run"}}, {"id": 272, "type": "Feature", "geometry": {"type": "Point", "coordinates": [-78.36270712, 38.98465656]}, "properties": {"name": "Strasburg", "size": 2, "region": "Region B", "district": "Bull Run"}}, {"id": 273, "type": "Feature", "geometry": {"type": "Point", "coordinates": [-79.01291344, 38.04644619]}, "properties": {"name": "Stuarts Draft", "size": 2, "region": "Region B", "district": "Shenandoah"}}]}
