{"type": "FeatureCollection", "features": [{"id": 3, "type": "Feature", "geometry": {"type": "Point", "coordinates": [-79.90864672, 37.78881131]}, "properties": {"name": "Alleghany", "size": 2, "region": "Region C", "district": "Three Rivers"}}, {"id": 8, "type": "Feature", "geometry": {"type": "Point", "coordinates": [-78.82611416, 37.34543957]}, "properties": {"name": "Appomattox", "size": 2, "region": "Region C", "district": "Dogwood"}}, {"id": 48, "type": "Feature", "geometry": {"type": "Point", "coordinates": [-79.40231567, 36.78756767]}, "properties": {"name": "Chatham", "size": 2, "region": "Region C", "district": "Dogwood"}}, {"id": 65, "type": "Feature", "geometry": {"type": "Point", "coordinates": [-79.30011355, 36.66182949]}, "properties": {"name": "Dan River", "size": 2, "region": "Region C", "district": "Dogwood"}}, {"id": 82, "type": "Feature", "geometry": {"type": "Point", "coordinates": [-80.30818427, 36.90941174]}, "properties": {"name": "Floyd County", "size": 2, "region": "Region C", "district": "Three Rivers"}}, {"id": 102, "type": "Feature", "geometry": {"type": "Point", "coordinates": [-80.70470449, 37.3274981]}, "properties": {"name": "Giles", "size": 2, "region": "Region C", "district": "Three Rivers"}}, {"id": 104, "type": "Feature", "geometry": {"type": "Point", "coordinates": [-80.13953006, 37.28063354]}, "properties": {"name": "Glenvar", "size": 2, "region": "Region C", "district": "Three Rivers"}}, {"id": 115, "type": "Feature", "geometry": {"type": "Point", "coordinates": [-79.36875363, 36.94567814]}, "properties": {"name": "Gretna", "size": 2, "region": "Region C", "district": "Dogwood"}}, {"id": 145, "type": "Feature", "geometry": {"type": "Point", "coordinates": [-79.72626211, 37.54748086]}, "properties": {"name": "James River (Buchanan)", "size": 2, "region": "Region C", "district": "Three Rivers"}}, {"id": 209, "type": "Feature", "geometry": {"type": "Point", "coordinates": [-78.89549879, 37.7328428]}, "properties": {"name": "Nelson County", "size": 2, "region": "Region C", "district": "Dogwood"}}, {"id": 228, "type": "Feature", "geometry": {"type": "Point", "coordinates": [-80.27029472, 36.62293569]}, "properties": {"name": "Patrick County", "size": 2, "region": "Region C", "district": "Piedmont"}}, {"id": 243, "type": "Feature", "geometry": {"type": "Point", "coordinates": [-80.57011003, 37.13580776]}, "properties": {"name": "Radford", "size": 2, "region": "Region C", "district": "Three Rivers"}}]}
