{"type": "FeatureCollection", "features": [{"id": 37, "type": "Feature", "geometry": {"type": "Point", "coordinates": [-82.29632028, 36.87197785]}, "properties": {"name": "Castlewood", "size": 1, "region": "Region D", "district": "Cumberland"}}, {"id": 49, "type": "Feature", "geometry": {"type": "Point", "coordinates": [-81.67373413, 36.80446381]}, "properties": {"name": "Chilhowie", "size": 1, "region": "Region D", "district": "Hogoheegee"}}, {"id": 59, "type": "Feature", "geometry": {"type": "Point", "coordinates": [-82.0793243, 37.08224452]}, "properties": {"name": "Council", "size": 1, "region": "Region D", "district": "Black Diamond"}}, {"id": 76, "type": "Feature", "geometry": {"type": "Point", "coordinates": [-82.46828565, 36.94595205]}, "properties": {"name": "Eastside", "size": 1, "region": "Region D", "district": "Cumberland"}}, {"id": 116, "type": "Feature", "geometry": {"type": "Point", "coordinates": [-82.06196088, 37.28350847]}, "properties": {"name": "Grundy", "size": 1, "region": "Region D", "district": "Black Diamond"}}, {"id": 122, "type": "Feature", "geometry": {"type": "Point", "coordinates": [-82.29360432, 37.19972953]}, "properties": {"name": "Haysi", "size": 1, "region": "Region D", "district": "Black Diamond"}}, {"id": 133, "type": "Feature", "geometry": {"type": "Point", "coordinates": [-81.79391287, 36.65426083]}, "properties": {"name": "Holston", "size": 1, "region": "Region D", "district": "Hogoheegee"}}, {"id": 134, "type": "Feature", "geometry": {"type": "Point", "coordinates": [-81.97868381, 37.0168268]}, "properties": {"name": "Honaker", "size": 1, "region": "Region D", "district": "Black Diamond"}}, {"id": 137, "type": "Feature", "geometry": {"type": "Point", "coordinates": [-82.0004138, 37.38024718]}, "properties": {"name": "Hurley", "size": 1, "region": "Region D", "district": "Black Diamond"}}, {"id": 141, "type": "Feature", "geometry": {"type": "Point", "coordinates": [-82.63354485, 36.92982794]}, "properties": {"name": "J.I. Burton", "size": 1, "region": "Region D", "district": "Cumberland"}}, {"id": 215, "type": "Feature", "geometry": {"type": "Point", "coordinates": [-81.76285871, 36.87891017]}, "properties": {"name": "Northwood", "size": 1, "region": "Region D", "district": "Hogoheegee"}}, {"id": 230, "type": "Feature", "geometry": {"type": "Point", "coordinates": [-81.81450086, 36.7761881]}, "properties": {"name": "Patrick Henry (Glade Spring)", "size": 1, "region": "Region D", "district": "Hogoheegee"}}, {"id": 254, "type": "Feature", "geometry": {"type": "Point", "coordinates": [-81.26931573, 36.89542392]}, "properties": {"name": "Rural Retreat", "size": 1, "region": "Region D", "district": "Hogoheegee"}}, {"id": 256, "type": "Feature", "geometry": {"type": "Point", "coordinates": [-82.69131874, 36.73542458]}, "properties": {"name": "Rye Cove", "size": 1, "region": "Region D", "district": "Cumberland"}}, {"id": 284, "type": "Feature", "geometry": {"type": "Point", "coordinates": [-83.40863207, 36.64739072]}, "properties": {"name": "Thomas Walker", "size": 1, "region": "Region D", "district": "Cumberland"}}, {"id": 288, "type": "Feature", "geometry": {"type": "Point", "coordinates": [-82.46313311, 36.7793819]}, "properties": {"name": "Twin Springs", "size": 1, "region": "Region D", "district": "Cumberland"}}, {"id": 289, "type": "Feature", "geometry": {"type": "Point", "coordinates": [-81.91357041, 37.24027986]}, "properties": {"name": "Twin Valley", "size": 1, "region": "Region D", "district": "Black Diamond"}}]}
