{"type": "FeatureCollection", "features": [{"id": 1, "type": "Feature", "geometry": {"type": "Point", "coordinates": [-81.95381648, 36.72059239]}, "properties": {"name": "Abingdon", "size": 3, "region": "Region D", "district": "Mountain 7"}}, {"id": 35, "type": "Feature", "geometry": {"type": "Point", "coordinates": [-80.72360605, 36.76218134]}, "properties": {"name": "Carroll County", "size": 3, "region": "Region D", "district": "Three Rivers"}}, {"id": 38, "type": "Feature", "geometry": {"type": "Point", "coordinates": [-80.00152626, 37.21314355]}, "properties": {"name": "Cave Spring", "size": 3, "region": "Region D", "district": "River Ridge"}}, {"id": 51, "type": "Feature", "geometry": {"type": "Point", "coordinates": [-80.41809787, 37.14526604]}, "properties": {"name": "Christiansburg", "size": 3, "region": "Region D", "district": "River Ridge"}}, {"id": 130, "type": "Feature", "geometry": {"type": "Point", "coordinates": [-80.0235844, 37.22373552]}, "properties": {"name": "Hidden Valley", "size": 3, "region": "Region D", "district": "River Ridge"}}, {"id": 178, "type": "Feature", "geometry": {"type": "Point", "coordinates": [-79.91441102, 37.40567155]}, "properties": {"name": "Lord Botetourt", "size": 3, "region": "Region D", "district": "Blue Ridge"}}, {"id": 185, "type": "Feature", "geometry": {"type": "Point", "coordinates": [-79.8908182, 36.59266617]}, "properties": {"name": "Magna Vista", "size": 3, "region": "Region D", "district": "Piedmont"}}, {"id": 213, "type": "Feature", "geometry": {"type": "Point", "coordinates": [-79.99936927, 37.32897936]}, "properties": {"name": "Northside", "size": 3, "region": "Region D", "district": "Blue Ridge"}}, {"id": 269, "type": "Feature", "geometry": {"type": "Point", "coordinates": [-79.62279692, 37.2410819]}, "properties": {"name": "Staunton River", "size": 3, "region": "Region D", "district": "Blue Ridge"}}, {"id": 285, "type": "Feature", "geometry": {"type": "Point", "coordinates": [-79.52457961, 36.6693208]}, "properties": {"name": "Tunstall", "size": 3, "region": "Region D", "district": "Piedmont"}}, {"id": 308, "type": "Feature", "geometry": {"type": "Point", "coordinates": [-79.85852092, 37.2836599]}, "properties": {"name": "William Byrd", "size": 3, "region": "Region D", "district": "Blue Ridge"}}]}
