{"type": "FeatureCollection", "features": [{"id": 11, "type": "Feature", "geometry": {"type": "Point", "coordinates": [-77.40407823, 37.55206691]}, "properties": {"name": "Armstrong", "size": 3, "region": "Region B", "district": "Capital"}}, {"id": 23, "type": "Feature", "geometry": {"type": "Point", "coordinates": [-77.56885572, 38.69213979]}, "properties": {"name": "Brentsville District", "size": 3, "region": "Region B", "district": "Northwestern"}}, {"id": 41, "type": "Feature", "geometry": {"type": "Point", "coordinates": [-78.522893, 38.86686252]}, "properties": {"name": "Central (Woodstock)", "size": 3, "region": "Region B", "district": "Northwestern"}}, {"id": 98, "type": "Feature", "geometry": {"type": "Point", "coordinates": [-77.19189637, 38.89769585]}, "properties": {"name": "George Mason (Meridian)", "size": 3, "region": "Region B", "district": "Northwestern"}}, {"id": 106, "type": "Feature", "geometry": {"type": "Point", "coordinates": [-77.89693819, 37.69981473]}, "properties": {"name": "Goochland", "size": 3, "region": "Region B", "district": "Jefferson"}}, {"id": 144, "type": "Feature", "geometry": {"type": "Point", "coordinates": [-77.47476279, 38.31120868]}, "properties": {"name": "James Monroe", "size": 3, "region": "Region B", "district": "Battlefield"}}, {"id": 177, "type": "Feature", "geometry": {"type": "Point", "coordinates": [-77.58506523, 38.92089102]}, "properties": {"name": "Lightridge", "size": 3, "region": "Region B", "district": "Dulles"}}, {"id": 184, "type": "Feature", "geometry": {"type": "Point", "coordinates": [-77.45352846, 37.55779902]}, "properties": {"name": "Maggie Walker Governor's School", "size": 3, "region": "Region B", "district": "Colonial"}}, {"id": 186, "type": "Feature", "geometry": {"type": "Point", "coordinates": [-77.44019269, 38.77836044]}, "properties": {"name": "Manassas Park", "size": 3, "region": "Region B", "district": "Northwestern"}}, {"id": 260, "type": "Feature", "geometry": {"type": "Point", "coordinates": [-78.20728477, 38.90630189]}, "properties": {"name": "Skyline", "size": 3, "region": "Region B", "district": "Northwestern"}}, {"id": 297, "type": "Feature", "geometry": {"type": "Point", "coordinates": [-78.16662608, 38.91612695]}, "properties": {"name": "Warren County", "size": 3, "region": "Region B", "district": "Northwestern"}}, {"id": 311, "type": "Feature", "geometry": {"type": "Point", "coordinates": [-78.44298699, 38.29401578]}, "properties": {"name": "William Monroe", "size": 3, "region": "Region B", "district": "Northwestern"}}]}
