{"type": "FeatureCollection", "features": [{"id": 16, "type": "Feature", "geometry": {"type": "Point", "coordinates": [-77.63060074, 38.84491046]}, "properties": {"name": "Battlefield", "size": 6, "region": "Region B", "district": "Cedar Run"}}, {"id": 33, "type": "Feature", "geometry": {"type": "Point", "coordinates": [-77.38524991, 38.64967165]}, "properties": {"name": "C.D. Hylton", "size": 6, "region": "Region B", "district": "Cardinal"}}, {"id": 46, "type": "Feature", "geometry": {"type": "Point", "coordinates": [-77.43881306, 38.65363548]}, "properties": {"name": "Charles J. Colgan", "size": 6, "region": "Region B", "district": "Cardinal"}}, {"id": 56, "type": "Feature", "geometry": {"type": "Point", "coordinates": [-77.45122297, 38.43514725]}, "properties": {"name": "Colonial Forge", "size": 6, "region": "Region B", "district": "Commonwealth"}}, {"id": 85, "type": "Feature", "geometry": {"type": "Point", "coordinates": [-77.36502966, 38.61186785]}, "properties": {"name": "Forest Park", "size": 6, "region": "Region B", "district": "Cardinal"}}, {"id": 92, "type": "Feature", "geometry": {"type": "Point", "coordinates": [-77.28846167, 38.6221343]}, "properties": {"name": "Freedom (Woodbridge)", "size": 6, "region": "Region B", "district": "Cardinal"}}, {"id": 95, "type": "Feature", "geometry": {"type": "Point", "coordinates": [-77.30337335, 38.64552971]}, "properties": {"name": "Gar-Field", "size": 6, "region": "Region B", "district": "Cardinal"}}, {"id": 152, "type": "Feature", "geometry": {"type": "Point", "coordinates": [-77.56659527, 38.93218094]}, "properties": {"name": "John Champe", "size": 6, "region": "Region B", "district": "Cedar Run"}}, {"id": 190, "type": "Feature", "geometry": {"type": "Point", "coordinates": [-77.51177705, 38.18254081]}, "properties": {"name": "Massaponax", "size": 6, "region": "Region B", "district": "Commonwealth"}}, {"id": 221, "type": "Feature", "geometry": {"type": "Point", "coordinates": [-77.46830338, 38.74750585]}, "properties": {"name": "Osbourn", "size": 6, "region": "Region B", "district": "Cedar Run"}}, {"id": 222, "type": "Feature", "geometry": {"type": "Point", "coordinates": [-77.44953999, 38.76381116]}, "properties": {"name": "Osbourn Park", "size": 6, "region": "Region B", "district": "Cedar Run"}}, {"id": 232, "type": "Feature", "geometry": {"type": "Point", "coordinates": [-77.57961612, 38.72637147]}, "properties": {"name": "Patriot", "size": 6, "region": "Region B", "district": "Cedar Run"}}, {"id": 236, "type": "Feature", "geometry": {"type": "Point", "coordinates": [-77.30823758, 38.59689505]}, "properties": {"name": "Potomac", "size": 6, "region": "Region B", "district": "Cardinal"}}, {"id": 249, "type": "Feature", "geometry": {"type": "Point", "coordinates": [-77.57572965, 38.29489272]}, "properties": {"name": "Riverbend", "size": 6, "region": "Region B", "district": "Commonwealth"}}, {"id": 291, "type": "Feature", "geometry": {"type": "Point", "coordinates": [-77.5080201, 38.765176]}, "properties": {"name": "Unity Reed", "size": 6, "region": "Region B", "district": "Cedar Run"}}, {"id": 314, "type": "Feature", "geometry": {"type": "Point", "coordinates": [-77.30204767, 38.68076088]}, "properties": {"name": "Woodbridge", "size": 6, "region": "Region B", "district": "Cardinal"}}]}
