{"type": "FeatureCollection", "features": [{"id": 17, "type": "Feature", "geometry": {"type": "Point", "coordinates": [-76.15008972, 36.86937586]}, "properties": {"name": "Bayside", "size": 5, "region": "Region A", "district": "Beach"}}, {"id": 66, "type": "Feature", "geometry": {"type": "Point", "coordinates": [-76.35178797, 36.75400594]}, "properties": {"name": "Deep Creek", "size": 5, "region": "Region A", "district": "Southeastern"}}, {"id": 81, "type": "Feature", "geometry": {"type": "Point", "coordinates": [-76.03025419, 36.87383906]}, "properties": {"name": "First Colonial", "size": 5, "region": "Region A", "district": "Beach"}}, {"id": 88, "type": "Feature", "geometry": {"type": "Point", "coordinates": [-76.0520018, 36.8867179]}, "properties": {"name": "Frank W. Cox", "size": 5, "region": "Region A", "district": "Beach"}}, {"id": 105, "type": "Feature", "geometry": {"type": "Point", "coordinates": [-76.52537773, 37.3821479]}, "properties": {"name": "Gloucester", "size": 5, "region": "Region A", "district": "Peninsula"}}, {"id": 109, "type": "Feature", "geometry": {"type": "Point", "coordinates": [-76.27680199, 36.90712494]}, "properties": {"name": "Granby", "size": 5, "region": "Region A", "district": "Eastern"}}, {"id": 113, "type": "Feature", "geometry": {"type": "Point", "coordinates": [-76.11211271, 36.80427978]}, "properties": {"name": "Green Run", "size": 5, "region": "Region A", "district": "Beach"}}, {"id": 129, "type": "Feature", "geometry": {"type": "Point", "coordinates": [-76.21645904, 36.64837473]}, "properties": {"name": "Hickory", "size": 5, "region": "Region A", "district": "Southeastern"}}, {"id": 140, "type": "Feature", "geometry": {"type": "Point", "coordinates": [-76.24273442, 36.79762406]}, "properties": {"name": "Indian River", "size": 5, "region": "Region A", "district": "Southeastern"}}, {"id": 157, "type": "Feature", "geometry": {"type": "Point", "coordinates": [-76.31775861, 37.05499094]}, "properties": {"name": "Kecoughtan", "size": 5, "region": "Region A", "district": "Peninsula"}}, {"id": 158, "type": "Feature", "geometry": {"type": "Point", "coordinates": [-76.15793596, 36.82115324]}, "properties": {"name": "Kempsville", "size": 5, "region": "Region A", "district": "Beach"}}, {"id": 193, "type": "Feature", "geometry": {"type": "Point", "coordinates": [-76.29083289, 36.86500105]}, "properties": {"name": "Maury", "size": 5, "region": "Region A", "district": "Eastern"}}, {"id": 207, "type": "Feature", "geometry": {"type": "Point", "coordinates": [-76.51786361, 36.80169712]}, "properties": {"name": "Nansemond River", "size": 5, "region": "Region A", "district": "Southeastern"}}, {"id": 216, "type": "Feature", "geometry": {"type": "Point", "coordinates": [-76.23964286, 36.90035959]}, "properties": {"name": "Norview", "size": 5, "region": "Region A", "district": "Eastern"}}, {"id": 241, "type": "Feature", "geometry": {"type": "Point", "coordinates": [-76.12735648, 36.84442728]}, "properties": {"name": "Princess Anne", "size": 5, "region": "Region A", "district": "Beach"}}, {"id": 258, "type": "Feature", "geometry": {"type": "Point", "coordinates": [-76.14297254, 36.78296517]}, "properties": {"name": "Salem (Virginia Beach)", "size": 5, "region": "Region A", "district": "Beach"}}, {"id": 317, "type": "Feature", "geometry": {"type": "Point", "coordinates": [-76.52438092, 37.17286682]}, "properties": {"name": "Woodside", "size": 5, "region": "Region A", "district": "Peninsula"}}]}
