{"type": "FeatureCollection", "features": [{"id": 25, "type": "Feature", "geometry": {"type": "Point", "coordinates": [-77.49203475, 39.02227582]}, "properties": {"name": "Broad Run", "size": 4, "region": "Region C", "district": "Dulles"}}, {"id": 63, "type": "Feature", "geometry": {"type": "Point", "coordinates": [-77.98656343, 38.49421904]}, "properties": {"name": "Culpeper County", "size": 4, "region": "Region C", "district": "Battlefield"}}, {"id": 70, "type": "Feature", "geometry": {"type": "Point", "coordinates": [-77.37435082, 39.02647626]}, "properties": {"name": "Dominion", "size": 4, "region": "Region C", "district": "Dulles"}}, {"id": 80, "type": "Feature", "geometry": {"type": "Point", "coordinates": [-77.81510416, 38.71919836]}, "properties": {"name": "Fauquier", "size": 4, "region": "Region C", "district": "Northwestern"}}, {"id": 124, "type": "Feature", "geometry": {"type": "Point", "coordinates": [-77.57052991, 39.08319893]}, "properties": {"name": "Heritage (Leesburg)", "size": 4, "region": "Region C", "district": "Dulles"}}, {"id": 139, "type": "Feature", "geometry": {"type": "Point", "coordinates": [-77.55315433, 38.97702995]}, "properties": {"name": "Independence", "size": 4, "region": "Region C", "district": "Dulles"}}, {"id": 148, "type": "Feature", "geometry": {"type": "Point", "coordinates": [-78.18321383, 39.21431094]}, "properties": {"name": "James Wood", "size": 4, "region": "Region C", "district": "Northwestern"}}, {"id": 153, "type": "Feature", "geometry": {"type": "Point", "coordinates": [-78.17572212, 39.17859868]}, "properties": {"name": "John Handley", "size": 4, "region": "Region C", "district": "Northwestern"}}, {"id": 159, "type": "Feature", "geometry": {"type": "Point", "coordinates": [-77.68184474, 38.73182485]}, "properties": {"name": "Kettle Run", "size": 4, "region": "Region C", "district": "Northwestern"}}, {"id": 174, "type": "Feature", "geometry": {"type": "Point", "coordinates": [-77.76582343, 38.58985202]}, "properties": {"name": "Liberty (Bealeton)", "size": 4, "region": "Region C", "district": "Northwestern"}}, {"id": 179, "type": "Feature", "geometry": {"type": "Point", "coordinates": [-77.57908336, 39.11056312]}, "properties": {"name": "Loudoun County", "size": 4, "region": "Region C", "district": "Dulles"}}, {"id": 180, "type": "Feature", "geometry": {"type": "Point", "coordinates": [-77.70210555, 39.14075078]}, "properties": {"name": "Loudoun Valley", "size": 4, "region": "Region C", "district": "Dulles"}}, {"id": 200, "type": "Feature", "geometry": {"type": "Point", "coordinates": [-78.11452877, 39.19128497]}, "properties": {"name": "Millbrook", "size": 4, "region": "Region C", "district": "Northwestern"}}, {"id": 226, "type": "Feature", "geometry": {"type": "Point", "coordinates": [-77.39969818, 39.01488766]}, "properties": {"name": "Park View (Sterling)", "size": 4, "region": "Region C", "district": "Dulles"}}, {"id": 259, "type": "Feature", "geometry": {"type": "Point", "coordinates": [-78.19428974, 39.07547754]}, "properties": {"name": "Sherando", "size": 4, "region": "Region C", "district": "Northwestern"}}, {"id": 287, "type": "Feature", "geometry": {"type": "Point", "coordinates": [-77.55804975, 39.13271367]}, "properties": {"name": "Tuscarora", "size": 4, "region": "Region C", "district": "Dulles"}}]}
