{"type": "FeatureCollection", "features": [{"id": 4, "type": "Feature", "geometry": {"type": "Point", "coordinates": [-79.29608408, 37.10926577]}, "properties": {"name": "Altavista", "size": 1, "region": "Region B", "district": "Dogwood"}}, {"id": 9, "type": "Feature", "geometry": {"type": "Point", "coordinates": [-77.41162612, 37.22595174]}, "properties": {"name": "Appomattox Regional Governors School", "size": 1, "region": "Region B", "district": "Tri-Rivers"}}, {"id": 36, "type": "Feature", "geometry": {"type": "Point", "coordinates": [-77.47262211, 37.34859167]}, "properties": {"name": "Carver College & Career Academy", "size": 1, "region": "Region B", "district": "Tidewater"}}, {"id": 39, "type": "Feature", "geometry": {"type": "Point", "coordinates": [-78.21684539, 36.98503361]}, "properties": {"name": "Central (Lunenburg)", "size": 1, "region": "Region B", "district": "James River"}}, {"id": 64, "type": "Feature", "geometry": {"type": "Point", "coordinates": [-78.24695041, 37.49094658]}, "properties": {"name": "Cumberland", "size": 1, "region": "Region B", "district": "James River"}}, {"id": 89, "type": "Feature", "geometry": {"type": "Point", "coordinates": [-76.94784179, 36.69113704]}, "properties": {"name": "Franklin", "size": 1, "region": "Region B", "district": "Tri-Rivers"}}, {"id": 94, "type": "Feature", "geometry": {"type": "Point", "coordinates": [-79.39318074, 36.58392566]}, "properties": {"name": "Galileo Magnet", "size": 1, "region": "Region B", "district": "Dogwood"}}, {"id": 246, "type": "Feature", "geometry": {"type": "Point", "coordinates": [-78.18767806, 38.68668528]}, "properties": {"name": "Rappahannock County", "size": 1, "region": "Region B", "district": "Bull Run"}}, {"id": 250, "type": "Feature", "geometry": {"type": "Point", "coordinates": [-79.139953, 38.0325554]}, "properties": {"name": "Riverheads", "size": 1, "region": "Region B", "district": "Shenandoah"}}, {"id": 274, "type": "Feature", "geometry": {"type": "Point", "coordinates": [-76.90343585, 37.08027239]}, "properties": {"name": "Surry County", "size": 1, "region": "Region B", "district": "Tri-Rivers"}}, {"id": 275, "type": "Feature", "geometry": {"type": "Point", "coordinates": [-77.25421794, 36.92020037]}, "properties": {"name": "Sussex", "size": 1, "region": "Region B", "district": "Tri-Rivers"}}, {"id": 309, "type": "Feature", "geometry": {"type": "Point", "coordinates": [-79.00671594, 37.11344129]}, "properties": {"name": "William Campbell", "size": 1, "region": "Region B", "district": "Dogwood"}}]}
