{"type": "FeatureCollection", "features": [{"id": 45, "type": "Feature", "geometry": {"type": "Point", "coordinates": [-77.07593803, 37.35098283]}, "properties": {"name": "Charles City", "size": 1, "region": "Region A", "district": "Tidewater"}}, {"id": 50, "type": "Feature", "geometry": {"type": "Point", "coordinates": [-75.36433909, 37.94293107]}, "properties": {"name": "Chincoteague", "size": 1, "region": "Region A", "district": "Eastern Shore"}}, {"id": 55, "type": "Feature", "geometry": {"type": "Point", "coordinates": [-76.96929798, 38.25778076]}, "properties": {"name": "Colonial Beach", "size": 1, "region": "Region A", "district": "Northern Neck"}}, {"id": 77, "type": "Feature", "geometry": {"type": "Point", "coordinates": [-76.874319, 37.92393778]}, "properties": {"name": "Essex", "size": 1, "region": "Region A", "district": "Northern Neck"}}, {"id": 160, "type": "Feature", "geometry": {"type": "Point", "coordinates": [-76.88255215, 37.674278]}, "properties": {"name": "King & Queen", "size": 1, "region": "Region A", "district": "Tidewater"}}, {"id": 169, "type": "Feature", "geometry": {"type": "Point", "coordinates": [-76.45674989, 37.76879536]}, "properties": {"name": "Lancaster", "size": 1, "region": "Region A", "district": "Northern Neck"}}, {"id": 191, "type": "Feature", "geometry": {"type": "Point", "coordinates": [-76.32550153, 37.45009366]}, "properties": {"name": "Mathews", "size": 1, "region": "Region A", "district": "Tidewater"}}, {"id": 198, "type": "Feature", "geometry": {"type": "Point", "coordinates": [-76.60202396, 37.60814115]}, "properties": {"name": "Middlesex", "size": 1, "region": "Region A", "district": "Tidewater"}}, {"id": 212, "type": "Feature", "geometry": {"type": "Point", "coordinates": [-75.94136521, 37.3612684]}, "properties": {"name": "Northampton", "size": 1, "region": "Region A", "district": "Eastern Shore"}}, {"id": 214, "type": "Feature", "geometry": {"type": "Point", "coordinates": [-76.43890512, 37.91323855]}, "properties": {"name": "Northumberland", "size": 1, "region": "Region A", "district": "Northern Neck"}}, {"id": 245, "type": "Feature", "geometry": {"type": "Point", "coordinates": [-76.74336496, 37.94921185]}, "properties": {"name": "Rappahannock", "size": 1, "region": "Region A", "district": "Northern Neck"}}, {"id": 299, "type": "Feature", "geometry": {"type": "Point", "coordinates": [-76.81824763, 38.09355207]}, "properties": {"name": "Washington & Lee", "size": 1, "region": "Region A", "district": "Northern Neck"}}, {"id": 302, "type": "Feature", "geometry": {"type": "Point", "coordinates": [-76.79710111, 37.55736667]}, "properties": {"name": "West Point", "size": 1, "region": "Region A", "district": "Tidewater"}}]}
