{"type": "FeatureCollection", "features": [{"id": 12, "type": "Feature", "geometry": {"type": "Point", "coordinates": [-77.4104218, 37.66499457]}, "properties": {"name": "Atlee", "size": 5, "region": "Region B", "district": "Capital"}}, {"id": 18, "type": "Feature", "geometry": {"type": "Point", "coordinates": [-76.42927799, 37.05340441]}, "properties": {"name": "Bethel", "size": 5, "region": "Region B", "district": "Peninsula"}}, {"id": 54, "type": "Feature", "geometry": {"type": "Point", "coordinates": [-77.64070587, 37.4486458]}, "properties": {"name": "Clover Hill", "size": 5, "region": "Region B", "district": "Dominion"}}, {"id": 67, "type": "Feature", "geometry": {"type": "Point", "coordinates": [-77.59949387, 37.6750893]}, "properties": {"name": "Deep Run", "size": 5, "region": "Region B", "district": "Colonial"}}, {"id": 71, "type": "Feature", "geometry": {"type": "Point", "coordinates": [-77.55815032, 37.60206283]}, "properties": {"name": "Douglas S. Freeman", "size": 5, "region": "Region B", "district": "Colonial"}}, {"id": 103, "type": "Feature", "geometry": {"type": "Point", "coordinates": [-77.53483431, 37.66581948]}, "properties": {"name": "Glen Allen", "size": 5, "region": "Region B", "district": "Colonial"}}, {"id": 123, "type": "Feature", "geometry": {"type": "Point", "coordinates": [-77.43248016, 37.60326031]}, "properties": {"name": "Henrico", "size": 5, "region": "Region B", "district": "Capital"}}, {"id": 142, "type": "Feature", "geometry": {"type": "Point", "coordinates": [-77.54694214, 37.62913967]}, "properties": {"name": "J.R. Tucker", "size": 5, "region": "Region B", "district": "Colonial"}}, {"id": 164, "type": "Feature", "geometry": {"type": "Point", "coordinates": [-77.4946109, 37.38842597]}, "properties": {"name": "L.C. Bird", "size": 5, "region": "Region B", "district": "Dominion"}}, {"id": 187, "type": "Feature", "geometry": {"type": "Point", "coordinates": [-77.62317168, 37.40745978]}, "properties": {"name": "Manchester", "size": 5, "region": "Region B", "district": "Dominion"}}, {"id": 192, "type": "Feature", "geometry": {"type": "Point", "coordinates": [-77.4679285, 37.27715967]}, "properties": {"name": "Matoaca", "size": 5, "region": "Region B", "district": "Central"}}, {"id": 195, "type": "Feature", "geometry": {"type": "Point", "coordinates": [-77.48407709, 37.43582905]}, "properties": {"name": "Meadowbrook", "size": 5, "region": "Region B", "district": "Central"}}, {"id": 199, "type": "Feature", "geometry": {"type": "Point", "coordinates": [-77.66068874, 37.49612209]}, "properties": {"name": "Midlothian", "size": 5, "region": "Region B", "district": "Dominion"}}, {"id": 201, "type": "Feature", "geometry": {"type": "Point", "coordinates": [-77.60511245, 37.61941836]}, "properties": {"name": "Mills E. Godwin", "size": 5, "region": "Region B", "district": "Colonial"}}, {"id": 240, "type": "Feature", "geometry": {"type": "Point", "coordinates": [-77.26525158, 37.20657787]}, "properties": {"name": "Prince George", "size": 5, "region": "Region B", "district": "Central"}}, {"id": 292, "type": "Feature", "geometry": {"type": "Point", "coordinates": [-77.37755599, 37.47291955]}, "properties": {"name": "Varina", "size": 5, "region": "Region B", "district": "Capital"}}]}
