{"type": "FeatureCollection", "features": [{"id": 7, "type": "Feature", "geometry": {"type": "Point", "coordinates": [-77.20765313, 38.82238643]}, "properties": {"name": "Annandale", "size": 6, "region": "Region C", "district": "Gunston"}}, {"id": 78, "type": "Feature", "geometry": {"type": "Point", "coordinates": [-77.28540835, 38.86016406]}, "properties": {"name": "Fairfax", "size": 6, "region": "Region C", "district": "Patriot"}}, {"id": 79, "type": "Feature", "geometry": {"type": "Point", "coordinates": [-77.20711006, 38.86246868]}, "properties": {"name": "Falls Church", "size": 6, "region": "Region C", "district": "National"}}, {"id": 121, "type": "Feature", "geometry": {"type": "Point", "coordinates": [-77.14344006, 38.75023536]}, "properties": {"name": "Hayfield", "size": 6, "region": "Region C", "district": "Gunston"}}, {"id": 147, "type": "Feature", "geometry": {"type": "Point", "coordinates": [-77.3034603, 38.81688296]}, "properties": {"name": "James Robinson", "size": 6, "region": "Region C", "district": "Patriot"}}, {"id": 156, "type": "Feature", "geometry": {"type": "Point", "coordinates": [-77.15021453, 38.85681096]}, "properties": {"name": "Justice", "size": 6, "region": "Region C", "district": "National"}}, {"id": 166, "type": "Feature", "geometry": {"type": "Point", "coordinates": [-77.26528369, 38.80339247]}, "properties": {"name": "Lake Braddock", "size": 6, "region": "Region C", "district": "Patriot"}}, {"id": 204, "type": "Feature", "geometry": {"type": "Point", "coordinates": [-77.09227975, 38.72717853]}, "properties": {"name": "Mount Vernon", "size": 6, "region": "Region C", "district": "Gunston"}}, {"id": 262, "type": "Feature", "geometry": {"type": "Point", "coordinates": [-77.23845834, 38.71771142]}, "properties": {"name": "South County", "size": 6, "region": "Region C", "district": "Patriot"}}, {"id": 276, "type": "Feature", "geometry": {"type": "Point", "coordinates": [-77.0844416, 38.82461443]}, "properties": {"name": "T.C. Williams", "size": 6, "region": "Region C", "district": "Gunston"}}, {"id": 281, "type": "Feature", "geometry": {"type": "Point", "coordinates": [-77.13352053, 38.78332514]}, "properties": {"name": "Thomas Edison", "size": 6, "region": "Region C", "district": "National"}}, {"id": 294, "type": "Feature", "geometry": {"type": "Point", "coordinates": [-77.27635789, 38.84065948]}, "properties": {"name": "W.T. Woodson", "size": 6, "region": "Region C", "district": "Patriot"}}, {"id": 303, "type": "Feature", "geometry": {"type": "Point", "coordinates": [-77.07211031, 38.77475061]}, "properties": {"name": "West Potomac", "size": 6, "region": "Region C", "district": "Gunston"}}, {"id": 304, "type": "Feature", "geometry": {"type": "Point", "coordinates": [-77.23954647, 38.7851005]}, "properties": {"name": "West Springfield", "size": 6, "region": "Region C", "district": "Patriot"}}]}
