{"type": "FeatureCollection", "features": [{"id": 52, "type": "Feature", "geometry": {"type": "Point", "coordinates": [-76.37181739, 36.88084195]}, "properties": {"name": "Churchland", "size": 4, "region": "Region A", "district": "Eastern"}}, {"id": 68, "type": "Feature", "geometry": {"type": "Point", "coordinates": [-76.54805444, 37.12552867]}, "properties": {"name": "Denbigh", "size": 4, "region": "Region A", "district": "Peninsula"}}, {"id": 107, "type": "Feature", "geometry": {"type": "Point", "coordinates": [-76.4695662, 37.16365997]}, "properties": {"name": "Grafton", "size": 4, "region": "Region A", "district": "Bay Rivers"}}, {"id": 112, "type": "Feature", "geometry": {"type": "Point", "coordinates": [-76.24048425, 36.68935146]}, "properties": {"name": "Great Bridge", "size": 4, "region": "Region A", "district": "Southeastern"}}, {"id": 118, "type": "Feature", "geometry": {"type": "Point", "coordinates": [-76.38215623, 37.02425771]}, "properties": {"name": "Hampton", "size": 4, "region": "Region A", "district": "Peninsula"}}, {"id": 126, "type": "Feature", "geometry": {"type": "Point", "coordinates": [-76.42746846, 37.00620664]}, "properties": {"name": "Heritage (Newport News)", "size": 4, "region": "Region A", "district": "Peninsula"}}, {"id": 149, "type": "Feature", "geometry": {"type": "Point", "coordinates": [-76.7891413, 37.25207477]}, "properties": {"name": "Jamestown", "size": 4, "region": "Region A", "district": "Bay Rivers"}}, {"id": 163, "type": "Feature", "geometry": {"type": "Point", "coordinates": [-76.59353084, 36.78484915]}, "properties": {"name": "King's Fork", "size": 4, "region": "Region A", "district": "Southeastern"}}, {"id": 167, "type": "Feature", "geometry": {"type": "Point", "coordinates": [-76.19867407, 36.87053023]}, "properties": {"name": "Lake Taylor", "size": 4, "region": "Region A", "district": "Eastern"}}, {"id": 197, "type": "Feature", "geometry": {"type": "Point", "coordinates": [-76.52969217, 37.09564575]}, "properties": {"name": "Menchville", "size": 4, "region": "Region A", "district": "Peninsula"}}, {"id": 261, "type": "Feature", "geometry": {"type": "Point", "coordinates": [-76.59909989, 36.94526921]}, "properties": {"name": "Smithfield", "size": 4, "region": "Region A", "district": "Bay Rivers"}}, {"id": 296, "type": "Feature", "geometry": {"type": "Point", "coordinates": [-76.75637178, 37.33288872]}, "properties": {"name": "Warhill", "size": 4, "region": "Region A", "district": "Bay Rivers"}}, {"id": 298, "type": "Feature", "geometry": {"type": "Point", "coordinates": [-76.47628716, 37.05232176]}, "properties": {"name": "Warwick", "size": 4, "region": "Region A", "district": "Peninsula"}}, {"id": 316, "type": "Feature", "geometry": {"type": "Point", "coordinates": [-77.07795714, 38.9501831]}, "properties": {"name": "Woodrow Wilson", "size": 4, "region": "Region A", "district": "Eastern"}}]}
