{"type": "FeatureCollection", "features": [{"id": 6, "type": "Feature", "geometry": {"type": "Point", "coordinates": [-79.05910531, 37.57019712]}, "properties": {"name": "Amherst", "size": 4, "region": "Region D", "district": "Seminole"}}, {"id": 14, "type": "Feature", "geometry": {"type": "Point", "coordinates": [-79.96243884, 36.72777706]}, "properties": {"name": "Bassett", "size": 4, "region": "Region D", "district": "Piedmont"}}, {"id": 19, "type": "Feature", "geometry": {"type": "Point", "coordinates": [-80.45969839, 37.21105938]}, "properties": {"name": "Blacksburg", "size": 4, "region": "Region D", "district": "River Ridge"}}, {"id": 72, "type": "Feature", "geometry": {"type": "Point", "coordinates": [-79.16598203, 37.4083725]}, "properties": {"name": "E.C. Glass", "size": 4, "region": "Region D", "district": "Seminole"}}, {"id": 99, "type": "Feature", "geometry": {"type": "Point", "coordinates": [-79.41210398, 36.58627911]}, "properties": {"name": "George Washington", "size": 4, "region": "Region D", "district": "Piedmont"}}, {"id": 117, "type": "Feature", "geometry": {"type": "Point", "coordinates": [-78.90875979, 36.73126456]}, "properties": {"name": "Halifax County", "size": 4, "region": "Region D", "district": "Piedmont"}}, {"id": 150, "type": "Feature", "geometry": {"type": "Point", "coordinates": [-79.30294439, 37.37537226]}, "properties": {"name": "Jefferson Forest", "size": 4, "region": "Region D", "district": "Seminole"}}, {"id": 242, "type": "Feature", "geometry": {"type": "Point", "coordinates": [-80.71770259, 37.09378033]}, "properties": {"name": "Pulaski County", "size": 4, "region": "Region D", "district": "River Ridge"}}, {"id": 257, "type": "Feature", "geometry": {"type": "Point", "coordinates": [-80.07919916, 37.29521912]}, "properties": {"name": "Salem (Salem)", "size": 4, "region": "Region D", "district": "River Ridge"}}]}
