{"type": "FeatureCollection", "features": [{"id": 2, "type": "Feature", "geometry": {"type": "Point", "coordinates": [-78.50004379, 38.07507306]}, "properties": {"name": "Albemarle", "size": 5, "region": "Region D", "district": "Jefferson"}}, {"id": 27, "type": "Feature", "geometry": {"type": "Point", "coordinates": [-77.39582955, 38.40626251]}, "properties": {"name": "Brooke Point", "size": 5, "region": "Region D", "district": "Commonwealth"}}, {"id": 120, "type": "Feature", "geometry": {"type": "Point", "coordinates": [-78.90926971, 38.44217641]}, "properties": {"name": "Harrisonburg", "size": 5, "region": "Region D", "district": "Valley"}}, {"id": 205, "type": "Feature", "geometry": {"type": "Point", "coordinates": [-78.66370116, 38.70380028]}, "properties": {"name": "Mountain View", "size": 5, "region": "Region D", "district": "Commonwealth"}}, {"id": 211, "type": "Feature", "geometry": {"type": "Point", "coordinates": [-77.45591353, 38.46731857]}, "properties": {"name": "North Stafford", "size": 5, "region": "Region D", "district": "Commonwealth"}}, {"id": 231, "type": "Feature", "geometry": {"type": "Point", "coordinates": [-79.98362642, 37.2560269]}, "properties": {"name": "Patrick Henry (Roanoke)", "size": 5, "region": "Region D", "district": "River Ridge"}}, {"id": 267, "type": "Feature", "geometry": {"type": "Point", "coordinates": [-77.46328754, 38.36024263]}, "properties": {"name": "Stafford", "size": 5, "region": "Region D", "district": "Commonwealth"}}, {"id": 310, "type": "Feature", "geometry": {"type": "Point", "coordinates": [-79.98299567, 37.30956829]}, "properties": {"name": "William Fleming", "size": 5, "region": "Region D", "district": "Blue Ridge"}}]}
