{"type": "FeatureCollection", "features": [{"id": 22, "type": "Feature", "geometry": {"type": "Point", "coordinates": [-76.2662947, 36.85293486]}, "properties": {"name": "Booker T. Washington", "size": 3, "region": "Region A", "district": "Eastern"}}, {"id": 57, "type": "Feature", "geometry": {"type": "Point", "coordinates": [-77.39109784, 37.26787145]}, "properties": {"name": "Colonial Heights", "size": 3, "region": "Region A", "district": "Central"}}, {"id": 135, "type": "Feature", "geometry": {"type": "Point", "coordinates": [-77.31384785, 37.28984351]}, "properties": {"name": "Hopewell", "size": 3, "region": "Region A", "district": "Central"}}, {"id": 138, "type": "Feature", "geometry": {"type": "Point", "coordinates": [-76.32049933, 36.83607738]}, "properties": {"name": "I.C. Norcom", "size": 3, "region": "Region A", "district": "Eastern"}}, {"id": 165, "type": "Feature", "geometry": {"type": "Point", "coordinates": [-76.7633014, 37.31605526]}, "properties": {"name": "Lafayette", "size": 3, "region": "Region A", "district": "Bay Rivers"}}, {"id": 168, "type": "Feature", "geometry": {"type": "Point", "coordinates": [-76.660214, 36.72103254]}, "properties": {"name": "Lakeland", "size": 3, "region": "Region A", "district": "Southeastern"}}, {"id": 210, "type": "Feature", "geometry": {"type": "Point", "coordinates": [-76.98113178, 37.51020375]}, "properties": {"name": "New Kent", "size": 3, "region": "Region A", "district": "Bay Rivers"}}, {"id": 225, "type": "Feature", "geometry": {"type": "Point", "coordinates": [-78.18285579, 36.70291407]}, "properties": {"name": "Park View (South Hill)", "size": 3, "region": "Region A", "district": "Tri-Rivers"}}, {"id": 233, "type": "Feature", "geometry": {"type": "Point", "coordinates": [-77.39995448, 37.1871715]}, "properties": {"name": "Petersburg", "size": 3, "region": "Region A", "district": "Central"}}, {"id": 234, "type": "Feature", "geometry": {"type": "Point", "coordinates": [-76.31687681, 37.03403867]}, "properties": {"name": "Phoebus", "size": 3, "region": "Region A", "district": "Peninsula"}}, {"id": 264, "type": "Feature", "geometry": {"type": "Point", "coordinates": [-77.10679385, 36.70105542]}, "properties": {"name": "Southampton", "size": 3, "region": "Region A", "district": "Tri-Rivers"}}, {"id": 277, "type": "Feature", "geometry": {"type": "Point", "coordinates": [-76.4376612, 37.1240735]}, "properties": {"name": "Tabb", "size": 3, "region": "Region A", "district": "Bay Rivers"}}, {"id": 318, "type": "Feature", "geometry": {"type": "Point", "coordinates": [-76.50104189, 37.20382631]}, "properties": {"name": "York", "size": 3, "region": "Region A", "district": "Bay Rivers"}}]}
