{"type": "FeatureCollection", "features": [{"id": 40, "type": "Feature", "geometry": {"type": "Point", "coordinates": [-82.59735197, 36.95520488]}, "properties": {"name": "Central (Wise)", "size": 2, "region": "Region D", "district": "Mountain 7"}}, {"id": 96, "type": "Feature", "geometry": {"type": "Point", "coordinates": [-82.56891542, 36.63976852]}, "properties": {"name": "Gate City", "size": 2, "region": "Region D", "district": "Mountain 7"}}, {"id": 108, "type": "Feature", "geometry": {"type": "Point", "coordinates": [-81.27062765, 37.23799226]}, "properties": {"name": "Graham", "size": 2, "region": "Region D", "district": "Southwest"}}, {"id": 151, "type": "Feature", "geometry": {"type": "Point", "coordinates": [-82.10343473, 36.6437899]}, "properties": {"name": "John Battle", "size": 2, "region": "Region D", "district": "Mountain 7"}}, {"id": 172, "type": "Feature", "geometry": {"type": "Point", "coordinates": [-82.10940515, 36.88856275]}, "properties": {"name": "Lebanon", "size": 2, "region": "Region D", "district": "Southwest"}}, {"id": 173, "type": "Feature", "geometry": {"type": "Point", "coordinates": [-83.08889684, 36.731266]}, "properties": {"name": "Lee", "size": 2, "region": "Region D", "district": "Mountain 7"}}, {"id": 188, "type": "Feature", "geometry": {"type": "Point", "coordinates": [-81.50495431, 36.83878091]}, "properties": {"name": "Marion Senior", "size": 2, "region": "Region D", "district": "Southwest"}}, {"id": 189, "type": "Feature", "geometry": {"type": "Point", "coordinates": [-79.86207, 36.69461898]}, "properties": {"name": "Martinsville", "size": 2, "region": "Region D", "district": "Piedmont"}}, {"id": 247, "type": "Feature", "geometry": {"type": "Point", "coordinates": [-81.77750002, 37.09343415]}, "properties": {"name": "Richlands", "size": 2, "region": "Region D", "district": "Southwest"}}, {"id": 248, "type": "Feature", "geometry": {"type": "Point", "coordinates": [-82.39003416, 37.13411629]}, "properties": {"name": "Ridgeview", "size": 2, "region": "Region D", "district": "Mountain 7"}}, {"id": 279, "type": "Feature", "geometry": {"type": "Point", "coordinates": [-81.5053131, 37.12476976]}, "properties": {"name": "Tazewell", "size": 2, "region": "Region D", "district": "Southwest"}}, {"id": 290, "type": "Feature", "geometry": {"type": "Point", "coordinates": [-82.73776645, 36.87945936]}, "properties": {"name": "Union", "size": 2, "region": "Region D", "district": "Mountain 7"}}, {"id": 293, "type": "Feature", "geometry": {"type": "Point", "coordinates": [-82.17945171, 36.61469506]}, "properties": {"name": "Virginia", "size": 2, "region": "Region D", "district": "Southwest"}}]}
