{"type": "FeatureCollection", "features": [{"id": 34, "type": "Feature", "geometry": {"type": "Point", "coordinates": [-77.41531003, 38.00047508]}, "properties": {"name": "Caroline", "size": 4, "region": "Region B", "district": "Battlefield"}}, {"id": 43, "type": "Feature", "geometry": {"type": "Point", "coordinates": [-77.55495173, 38.27294864]}, "properties": {"name": "Chancellor", "size": 4, "region": "Region B", "district": "Battlefield"}}, {"id": 60, "type": "Feature", "geometry": {"type": "Point", "coordinates": [-77.55200969, 38.23190293]}, "properties": {"name": "Courtland", "size": 4, "region": "Region B", "district": "Battlefield"}}, {"id": 69, "type": "Feature", "geometry": {"type": "Point", "coordinates": [-77.58316592, 37.1136171]}, "properties": {"name": "Dinwiddie", "size": 4, "region": "Region B", "district": "Central"}}, {"id": 75, "type": "Feature", "geometry": {"type": "Point", "coordinates": [-77.94589197, 38.4768996]}, "properties": {"name": "Eastern View", "size": 4, "region": "Region B", "district": "Battlefield"}}, {"id": 100, "type": "Feature", "geometry": {"type": "Point", "coordinates": [-77.48311552, 37.51072024]}, "properties": {"name": "George Wythe (Richmond)", "size": 4, "region": "Region B", "district": "Dominion"}}, {"id": 119, "type": "Feature", "geometry": {"type": "Point", "coordinates": [-77.38401838, 37.68802281]}, "properties": {"name": "Hanover", "size": 4, "region": "Region B", "district": "Capital"}}, {"id": 136, "type": "Feature", "geometry": {"type": "Point", "coordinates": [-77.54131349, 37.53222255]}, "properties": {"name": "Huguenot", "size": 4, "region": "Region B", "district": "Dominion"}}, {"id": 161, "type": "Feature", "geometry": {"type": "Point", "coordinates": [-77.19760303, 38.27649234]}, "properties": {"name": "King George", "size": 4, "region": "Region B", "district": "Battlefield"}}, {"id": 181, "type": "Feature", "geometry": {"type": "Point", "coordinates": [-77.9210728, 38.01750871]}, "properties": {"name": "Louisa County", "size": 4, "region": "Region B", "district": "Jefferson"}}, {"id": 196, "type": "Feature", "geometry": {"type": "Point", "coordinates": [-77.34008626, 37.61258161]}, "properties": {"name": "Mechanicsville", "size": 4, "region": "Region B", "district": "Capital"}}, {"id": 202, "type": "Feature", "geometry": {"type": "Point", "coordinates": [-77.61368311, 37.47918485]}, "properties": {"name": "Monacan", "size": 4, "region": "Region B", "district": "Dominion"}}, {"id": 220, "type": "Feature", "geometry": {"type": "Point", "coordinates": [-78.09665866, 38.24539585]}, "properties": {"name": "Orange County", "size": 4, "region": "Region B", "district": "Jefferson"}}, {"id": 229, "type": "Feature", "geometry": {"type": "Point", "coordinates": [-77.53375997, 37.78496806]}, "properties": {"name": "Patrick Henry (Ashland)", "size": 4, "region": "Region B", "district": "Capital"}}, {"id": 238, "type": "Feature", "geometry": {"type": "Point", "coordinates": [-77.80239975, 37.5218552]}, "properties": {"name": "Powhatan", "size": 4, "region": "Region B", "district": "Dominion"}}, {"id": 266, "type": "Feature", "geometry": {"type": "Point", "coordinates": [-77.65312989, 38.16029886]}, "properties": {"name": "Spotsylvania", "size": 4, "region": "Region B", "district": "Battlefield"}}]}
