{"type": "FeatureCollection", "features": [{"id": 13, "type": "Feature", "geometry": {"type": "Point", "coordinates": [-80.44426881, 37.05939231]}, "properties": {"name": "Auburn", "size": 1, "region": "Region C", "district": "Mountain Empire"}}, {"id": 15, "type": "Feature", "geometry": {"type": "Point", "coordinates": [-79.79476705, 38.03320054]}, "properties": {"name": "Bath County", "size": 1, "region": "Region C", "district": "Pioneer"}}, {"id": 20, "type": "Feature", "geometry": {"type": "Point", "coordinates": [-81.10940784, 37.24149024]}, "properties": {"name": "Bland County", "size": 1, "region": "Region C", "district": "Mountain Empire"}}, {"id": 61, "type": "Feature", "geometry": {"type": "Point", "coordinates": [-79.99171121, 37.784281]}, "properties": {"name": "Covington", "size": 1, "region": "Region C", "district": "Pioneer"}}, {"id": 62, "type": "Feature", "geometry": {"type": "Point", "coordinates": [-80.08439633, 37.51651599]}, "properties": {"name": "Craig County", "size": 1, "region": "Region C", "district": "Pioneer"}}, {"id": 74, "type": "Feature", "geometry": {"type": "Point", "coordinates": [-80.23052783, 37.20423232]}, "properties": {"name": "Eastern Montgomery", "size": 1, "region": "Region C", "district": "Pioneer"}}, {"id": 86, "type": "Feature", "geometry": {"type": "Point", "coordinates": [-80.9395259, 36.92971909]}, "properties": {"name": "Fort Chiswell", "size": 1, "region": "Region C", "district": "Mountain Empire"}}, {"id": 93, "type": "Feature", "geometry": {"type": "Point", "coordinates": [-80.92417614, 36.6547361]}, "properties": {"name": "Galax", "size": 1, "region": "Region C", "district": "Mountain Empire"}}, {"id": 101, "type": "Feature", "geometry": {"type": "Point", "coordinates": [-81.1025141, 36.94125271]}, "properties": {"name": "George Wythe (Wytheville)", "size": 1, "region": "Region C", "district": "Mountain Empire"}}, {"id": 111, "type": "Feature", "geometry": {"type": "Point", "coordinates": [-81.14672871, 36.621475]}, "properties": {"name": "Grayson County", "size": 1, "region": "Region C", "district": "Mountain Empire"}}, {"id": 131, "type": "Feature", "geometry": {"type": "Point", "coordinates": [-79.57895117, 38.4072979]}, "properties": {"name": "Highland County", "size": 1, "region": "Region C", "district": "Pioneer"}}, {"id": 208, "type": "Feature", "geometry": {"type": "Point", "coordinates": [-80.80402685, 37.33765483]}, "properties": {"name": "Narrows", "size": 1, "region": "Region C", "district": "Pioneer"}}, {"id": 227, "type": "Feature", "geometry": {"type": "Point", "coordinates": [-79.35948647, 37.71823945]}, "properties": {"name": "Parry McCluer", "size": 1, "region": "Region C", "district": "Pioneer"}}]}
