{"type": "FeatureCollection", "features": [{"id": 42, "type": "Feature", "geometry": {"type": "Point", "coordinates": [-77.41146642, 38.82528139]}, "properties": {"name": "Centreville", "size": 6, "region": "Region D", "district": "Concorde"}}, {"id": 44, "type": "Feature", "geometry": {"type": "Point", "coordinates": [-77.40732381, 38.88034318]}, "properties": {"name": "Chantilly", "size": 6, "region": "Region D", "district": "Concorde"}}, {"id": 97, "type": "Feature", "geometry": {"type": "Point", "coordinates": [-77.2119927, 38.90559951]}, "properties": {"name": "George C. Marshall", "size": 6, "region": "Region D", "district": "Liberty"}}, {"id": 128, "type": "Feature", "geometry": {"type": "Point", "coordinates": [-77.37518908, 38.98557678]}, "properties": {"name": "Herndon", "size": 6, "region": "Region D", "district": "Liberty"}}, {"id": 143, "type": "Feature", "geometry": {"type": "Point", "coordinates": [-77.27876002, 38.89578639]}, "properties": {"name": "James Madison", "size": 6, "region": "Region D", "district": "Concorde"}}, {"id": 171, "type": "Feature", "geometry": {"type": "Point", "coordinates": [-77.16763026, 38.94978882]}, "properties": {"name": "Langley", "size": 6, "region": "Region D", "district": "Liberty"}}, {"id": 194, "type": "Feature", "geometry": {"type": "Point", "coordinates": [-77.18445563, 38.92360937]}, "properties": {"name": "McLean", "size": 6, "region": "Region D", "district": "Liberty"}}, {"id": 218, "type": "Feature", "geometry": {"type": "Point", "coordinates": [-77.28198791, 38.87760807]}, "properties": {"name": "Oakton", "size": 6, "region": "Region D", "district": "Concorde"}}, {"id": 263, "type": "Feature", "geometry": {"type": "Point", "coordinates": [-77.33868783, 38.93247979]}, "properties": {"name": "South Lakes", "size": 6, "region": "Region D", "district": "Liberty"}}, {"id": 295, "type": "Feature", "geometry": {"type": "Point", "coordinates": [-77.11138598, 38.84729694]}, "properties": {"name": "Wakefield", "size": 6, "region": "Region D", "district": "National"}}, {"id": 300, "type": "Feature", "geometry": {"type": "Point", "coordinates": [-77.1097694, 38.8881228]}, "properties": {"name": "Washington-Liberty", "size": 6, "region": "Region D", "district": "Liberty"}}, {"id": 307, "type": "Feature", "geometry": {"type": "Point", "coordinates": [-77.46383595, 38.88551007]}, "properties": {"name": "Westfield", "size": 6, "region": "Region D", "district": "Concorde"}}, {"id": 319, "type": "Feature", "geometry": {"type": "Point", "coordinates": [-77.13995536, 38.90330522]}, "properties": {"name": "Yorktown", "size": 6, "region": "Region D", "district": "Liberty"}}]}
