{"type": "FeatureCollection", "features": [{"id": 24, "type": "Feature", "geometry": {"type": "Point", "coordinates": [-77.53019293, 38.9924651]}, "properties": {"name": "Briar Woods", "size": 5, "region": "Region C", "district": "Potomac"}}, {"id": 91, "type": "Feature", "geometry": {"type": "Point", "coordinates": [-77.53581232, 38.91397009]}, "properties": {"name": "Freedom (South Riding)", "size": 5, "region": "Region C", "district": "Potomac"}}, {"id": 127, "type": "Feature", "geometry": {"type": "Point", "coordinates": [-77.51707068, 37.63276046]}, "properties": {"name": "Hermitage", "size": 5, "region": "Region C", "district": "Colonial"}}, {"id": 132, "type": "Feature", "geometry": {"type": "Point", "coordinates": [-77.3241575, 37.54017112]}, "properties": {"name": "Highland Springs", "size": 5, "region": "Region C", "district": "Capital"}}, {"id": 154, "type": "Feature", "geometry": {"type": "Point", "coordinates": [-77.17019923, 38.78070412]}, "properties": {"name": "John R. Lewis", "size": 5, "region": "Region C", "district": "National"}}, {"id": 237, "type": "Feature", "geometry": {"type": "Point", "coordinates": [-77.39050785, 39.05160846]}, "properties": {"name": "Potomac Falls", "size": 5, "region": "Region C", "district": "Potomac"}}, {"id": 251, "type": "Feature", "geometry": {"type": "Point", "coordinates": [-77.48936082, 39.09172311]}, "properties": {"name": "Riverside", "size": 5, "region": "Region C", "district": "Potomac"}}, {"id": 252, "type": "Feature", "geometry": {"type": "Point", "coordinates": [-77.50003104, 38.97740019]}, "properties": {"name": "Rock Ridge", "size": 5, "region": "Region C", "district": "Potomac"}}, {"id": 270, "type": "Feature", "geometry": {"type": "Point", "coordinates": [-77.50920705, 39.04839345]}, "properties": {"name": "Stone Bridge", "size": 5, "region": "Region C", "district": "Potomac"}}, {"id": 283, "type": "Feature", "geometry": {"type": "Point", "coordinates": [-77.16820514, 38.8182827]}, "properties": {"name": "Thomas Jefferson S&T", "size": 5, "region": "Region C", "district": "National"}}, {"id": 315, "type": "Feature", "geometry": {"type": "Point", "coordinates": [-77.72637445, 39.15441713]}, "properties": {"name": "Woodgrove", "size": 5, "region": "Region C", "district": "Potomac"}}]}
