{"type": "FeatureCollection", "features": [{"id": 5, "type": "Feature", "geometry": {"type": "Point", "coordinates": [-77.98783996, 37.33151562]}, "properties": {"name": "Amelia", "size": 2, "region": "Region A", "district": "James River"}}, {"id": 10, "type": "Feature", "geometry": {"type": "Point", "coordinates": [-75.54974664, 37.92507876]}, "properties": {"name": "Arcadia", "size": 2, "region": "Region A", "district": "Eastern Shore"}}, {"id": 21, "type": "Feature", "geometry": {"type": "Point", "coordinates": [-78.49589394, 36.70552445]}, "properties": {"name": "Bluestone", "size": 2, "region": "Region A", "district": "James River"}}, {"id": 29, "type": "Feature", "geometry": {"type": "Point", "coordinates": [-77.8294486, 36.76729148]}, "properties": {"name": "Brunswick", "size": 2, "region": "Region A", "district": "Tri-Rivers"}}, {"id": 30, "type": "Feature", "geometry": {"type": "Point", "coordinates": [-76.69157439, 37.31095138]}, "properties": {"name": "Bruton", "size": 2, "region": "Region A", "district": "Bay Rivers"}}, {"id": 114, "type": "Feature", "geometry": {"type": "Point", "coordinates": [-77.55302272, 36.67945392]}, "properties": {"name": "Greensville County", "size": 2, "region": "Region A", "district": "Tri-Rivers"}}, {"id": 155, "type": "Feature", "geometry": {"type": "Point", "coordinates": [-77.44650608, 37.59513072]}, "properties": {"name": "John Marshall", "size": 2, "region": "Region A", "district": "Colonial"}}, {"id": 162, "type": "Feature", "geometry": {"type": "Point", "coordinates": [-77.13005411, 37.74251698]}, "properties": {"name": "King William", "size": 2, "region": "Region A", "district": "Tidewater"}}, {"id": 206, "type": "Feature", "geometry": {"type": "Point", "coordinates": [-75.7251235, 37.67871973]}, "properties": {"name": "Nandua", "size": 2, "region": "Region A", "district": "Eastern Shore"}}, {"id": 217, "type": "Feature", "geometry": {"type": "Point", "coordinates": [-78.06431556, 37.12271197]}, "properties": {"name": "Nottoway", "size": 2, "region": "Region A", "district": "James River"}}, {"id": 235, "type": "Feature", "geometry": {"type": "Point", "coordinates": [-76.37963456, 37.12915226]}, "properties": {"name": "Poquoson", "size": 2, "region": "Region A", "district": "Bay Rivers"}}, {"id": 239, "type": "Feature", "geometry": {"type": "Point", "coordinates": [-78.39937063, 37.26493415]}, "properties": {"name": "Prince Edward", "size": 2, "region": "Region A", "district": "James River"}}, {"id": 244, "type": "Feature", "geometry": {"type": "Point", "coordinates": [-78.6473185, 37.05398002]}, "properties": {"name": "Randolph-Henry", "size": 2, "region": "Region A", "district": "James River"}}, {"id": 282, "type": "Feature", "geometry": {"type": "Point", "coordinates": [-77.48651112, 37.57124719]}, "properties": {"name": "Thomas Jefferson (Richmond)", "size": 2, "region": "Region A", "district": "Colonial"}}, {"id": 313, "type": "Feature", "geometry": {"type": "Point", "coordinates": [-76.73924852, 36.81046889]}, "properties": {"name": "Windsor", "size": 2, "region": "Region A", "district": "Tri-Rivers"}}]}
