{"type": "FeatureCollection", "features": [{"id": 58, "type": "Feature", "geometry": {"type": "Point", "coordinates": [-77.70228405, 37.40586278]}, "properties": {"name": "Cosby", "size": 6, "region": "Region A", "district": "Dominion"}}, {"id": 83, "type": "Feature", "geometry": {"type": "Point", "coordinates": [-76.06232061, 36.74362326]}, "properties": {"name": "Floyd E. Kellam", "size": 6, "region": "Region A", "district": "Beach"}}, {"id": 90, "type": "Feature", "geometry": {"type": "Point", "coordinates": [-79.87758334, 37.00443861]}, "properties": {"name": "Franklin County", "size": 6, "region": "Region A", "district": "Blue Ridge"}}, {"id": 110, "type": "Feature", "geometry": {"type": "Point", "coordinates": [-76.3184493, 36.71375727]}, "properties": {"name": "Grassfield", "size": 6, "region": "Region A", "district": "Southeastern"}}, {"id": 146, "type": "Feature", "geometry": {"type": "Point", "coordinates": [-77.64982851, 37.55289785]}, "properties": {"name": "James River (Midlothian)", "size": 6, "region": "Region A", "district": "Dominion"}}, {"id": 170, "type": "Feature", "geometry": {"type": "Point", "coordinates": [-76.10013663, 36.779975]}, "properties": {"name": "Landstown", "size": 6, "region": "Region A", "district": "Beach"}}, {"id": 219, "type": "Feature", "geometry": {"type": "Point", "coordinates": [-75.98147267, 36.77222408]}, "properties": {"name": "Ocean Lakes", "size": 6, "region": "Region A", "district": "Beach"}}, {"id": 223, "type": "Feature", "geometry": {"type": "Point", "coordinates": [-76.25612762, 36.74024508]}, "properties": {"name": "Oscar Smith", "size": 6, "region": "Region A", "district": "Southeastern"}}, {"id": 278, "type": "Feature", "geometry": {"type": "Point", "coordinates": [-76.18218987, 36.78496086]}, "properties": {"name": "Tallwood", "size": 6, "region": "Region A", "district": "Beach"}}, {"id": 280, "type": "Feature", "geometry": {"type": "Point", "coordinates": [-77.43606796, 37.36097739]}, "properties": {"name": "Thomas Dale", "size": 6, "region": "Region A", "district": "Central"}}, {"id": 306, "type": "Feature", "geometry": {"type": "Point", "coordinates": [-76.40802946, 36.8478922]}, "properties": {"name": "Western Branch", "size": 6, "region": "Region A", "district": "Southeastern"}}]}
